{
"type": "FeatureCollection",
"name": "prosecutor",
"crs": { "type": "name", "properties": { "name": "urn:ogc:def:crs:OGC:1.3:CRS84" } },
"features": [
{ "type": "Feature", "properties": { "full_id": null, "osm_id": null, "osm_type": null, "government": null, "entrance": null, "office": null, "name": "Пермская Транспортная прокуратура", "addr:street": null, "addr:housenumber": null, "addr:city": null }, "geometry": { "type": "Point", "coordinates": [ 56.218844131413512, 58.004786020669719 ] } },
{ "type": "Feature", "properties": { "full_id": null, "osm_id": null, "osm_type": null, "government": null, "entrance": null, "office": null, "name": "Прокуратура Дзержинского района", "addr:street": null, "addr:housenumber": null, "addr:city": null }, "geometry": { "type": "Point", "coordinates": [ 56.197430142676836, 58.004368323688837 ] } },
{ "type": "Feature", "properties": { "full_id": null, "osm_id": null, "osm_type": null, "government": null, "entrance": null, "office": null, "name": "Прокуратура Кировского района", "addr:street": null, "addr:housenumber": null, "addr:city": null }, "geometry": { "type": "Point", "coordinates": [ 55.933720711087567, 57.996917375126898 ] } },
{ "type": "Feature", "properties": { "full_id": null, "osm_id": null, "osm_type": null, "government": null, "entrance": null, "office": null, "name": "Прокуратура Пермского района", "addr:street": null, "addr:housenumber": null, "addr:city": null }, "geometry": { "type": "Point", "coordinates": [ 56.127712918794479, 57.956292238939341 ] } },
{ "type": "Feature", "properties": { "full_id": null, "osm_id": null, "osm_type": null, "government": null, "entrance": null, "office": null, "name": "Пермская прокуратура по надзору за соблюдением законов в исправительных учреждениях", "addr:street": null, "addr:housenumber": null, "addr:city": null }, "geometry": { "type": "Point", "coordinates": [ 56.229325727296796, 58.012506535639687 ] } },
{ "type": "Feature", "properties": { "full_id": null, "osm_id": null, "osm_type": null, "government": null, "entrance": null, "office": null, "name": "Прокуратура Ленинского района", "addr:street": null, "addr:housenumber": null, "addr:city": null }, "geometry": { "type": "Point", "coordinates": [ 56.245572540712566, 58.017423850161912 ] } },
{ "type": "Feature", "properties": { "full_id": null, "osm_id": null, "osm_type": null, "government": null, "entrance": null, "office": null, "name": "Прокуратура Свердловского района", "addr:street": null, "addr:housenumber": null, "addr:city": null }, "geometry": { "type": "Point", "coordinates": [ 56.254416316448115, 57.99427129709462 ] } },
{ "type": "Feature", "properties": { "full_id": null, "osm_id": null, "osm_type": null, "government": null, "entrance": null, "office": null, "name": "Военная прокуратура Пермского гарнизона ", "addr:street": null, "addr:housenumber": null, "addr:city": null }, "geometry": { "type": "Point", "coordinates": [ 56.267836021227147, 57.994585859260873 ] } },
{ "type": "Feature", "properties": { "full_id": null, "osm_id": null, "osm_type": null, "government": null, "entrance": null, "office": null, "name": "Прокуратура Орджоникидзевского района ", "addr:street": null, "addr:housenumber": null, "addr:city": null }, "geometry": { "type": "Point", "coordinates": [ 56.384798579827809, 58.103385474155715 ] } },
{ "type": "Feature", "properties": { "full_id": "n701732814", "osm_id": "701732814", "osm_type": "node", "government": "prosecutor", "entrance": null, "office": "government", "name": "Прокуратура Мотовилихинского района", "addr:street": "Красная площадь", "addr:housenumber": "4А", "addr:city": "Пермь" }, "geometry": { "type": "Point", "coordinates": [ 56.3193436, 58.0370255 ] } },
{ "type": "Feature", "properties": { "full_id": "n1815700772", "osm_id": "1815700772", "osm_type": "node", "government": "prosecutor", "entrance": null, "office": "government", "name": "Прокуратура Индустриального района", "addr:street": null, "addr:housenumber": null, "addr:city": null }, "geometry": { "type": "Point", "coordinates": [ 56.1952669, 57.98596 ] } },
{ "type": "Feature", "properties": { "full_id": "n2893545192", "osm_id": "2893545192", "osm_type": "node", "government": "prosecutor", "entrance": null, "office": "government", "name": "Прокуратура г. Перми", "addr:street": null, "addr:housenumber": null, "addr:city": null }, "geometry": { "type": "Point", "coordinates": [ 56.2617158, 58.0131807 ] } },
{ "type": "Feature", "properties": { "full_id": "n3039360707", "osm_id": "3039360707", "osm_type": "node", "government": null, "entrance": "yes", "office": null, "name": null, "addr:street": null, "addr:housenumber": null, "addr:city": null }, "geometry": { "type": "Point", "coordinates": [ 56.2427979, 58.0082999 ] } }
]
}
