{
"type": "FeatureCollection",
"name": "tax",
"crs": { "type": "name", "properties": { "name": "urn:ogc:def:crs:OGC:1.3:CRS84" } },
"features": [
{ "type": "Feature", "properties": { "full_id": null, "osm_id": null, "osm_type": null, "government": null, "office": null, "name": "Межрайонная инспекция Федеральной налоговой службы России №22 по Пермскому краю", "contact:website": null, "contact:vk": null, "contact:twitter": null, "contact:facebook": null }, "geometry": { "type": "Point", "coordinates": [ 56.208589821774865, 58.011323703485623 ] } },
{ "type": "Feature", "properties": { "full_id": null, "osm_id": null, "osm_type": null, "government": null, "office": null, "name": "Межрайонная инспекция Федеральной налоговой службы России №20 по Пермскому краю", "contact:website": null, "contact:vk": null, "contact:twitter": null, "contact:facebook": null }, "geometry": { "type": "Point", "coordinates": [ 56.237066296376774, 58.0093331611249 ] } },
{ "type": "Feature", "properties": { "full_id": null, "osm_id": null, "osm_type": null, "government": null, "office": null, "name": "Инспекция Федеральной налоговой службы России по Ленинскому району ", "contact:website": null, "contact:vk": null, "contact:twitter": null, "contact:facebook": null }, "geometry": { "type": "Point", "coordinates": [ 56.244230721255413, 58.010098028923821 ] } },
{ "type": "Feature", "properties": { "full_id": null, "osm_id": null, "osm_type": null, "government": null, "office": null, "name": "Инспекция Федеральной налоговой службы России по Свердловскому району ", "contact:website": null, "contact:vk": null, "contact:twitter": null, "contact:facebook": null }, "geometry": { "type": "Point", "coordinates": [ 56.26309623465842, 58.001882045603672 ] } },
{ "type": "Feature", "properties": { "full_id": null, "osm_id": null, "osm_type": null, "government": null, "office": null, "name": "Межрайонная инспекция Федеральной налоговой службы России №17 по Пермскому краю", "contact:website": null, "contact:vk": null, "contact:twitter": null, "contact:facebook": null }, "geometry": { "type": "Point", "coordinates": [ 56.282357422453941, 58.007388915207798 ] } },
{ "type": "Feature", "properties": { "full_id": null, "osm_id": null, "osm_type": null, "government": null, "office": null, "name": "Межрайонная инспекция Федеральной налоговой службы №23 по Пермскому краю", "contact:website": null, "contact:vk": null, "contact:twitter": null, "contact:facebook": null }, "geometry": { "type": "Point", "coordinates": [ 56.290893115838003, 58.017916984245169 ] } },
{ "type": "Feature", "properties": { "full_id": null, "osm_id": null, "osm_type": null, "government": null, "office": null, "name": "Налог-сервис ", "contact:website": null, "contact:vk": null, "contact:twitter": null, "contact:facebook": null }, "geometry": { "type": "Point", "coordinates": [ 56.302878123392141, 58.10669652114111 ] } },
{ "type": "Feature", "properties": { "full_id": null, "osm_id": null, "osm_type": null, "government": null, "office": null, "name": "Межрайонная инспекция Федеральной налоговой службы России №23 по Пермскому краю", "contact:website": null, "contact:vk": null, "contact:twitter": null, "contact:facebook": null }, "geometry": { "type": "Point", "coordinates": [ 56.385703949286651, 58.126160008682774 ] } },
{ "type": "Feature", "properties": { "full_id": null, "osm_id": null, "osm_type": null, "government": null, "office": null, "name": "Межрайонная инспекция Федеральной налоговой службы №19 по Пермскому краю ", "contact:website": null, "contact:vk": null, "contact:twitter": null, "contact:facebook": null }, "geometry": { "type": "Point", "coordinates": [ 56.203779055448805, 57.975657185985767 ] } },
{ "type": "Feature", "properties": { "full_id": null, "osm_id": null, "osm_type": null, "government": null, "office": null, "name": "Межрайонная инспекция Федеральной налоговой службы России №19 по Пермскому краю", "contact:website": null, "contact:vk": null, "contact:twitter": null, "contact:facebook": null }, "geometry": { "type": "Point", "coordinates": [ 56.129825699234118, 57.956761376450245 ] } },
{ "type": "Feature", "properties": { "full_id": "n1076814528", "osm_id": "1076814528", "osm_type": "node", "government": "tax", "office": "government", "name": "ИФНС", "contact:website": "https://www.nalog.ru", "contact:vk": "https://vk.com/nalog__ru", "contact:twitter": "https://twitter.com/nalog__ru", "contact:facebook": "https://www.facebook.com/nalog.ru" }, "geometry": { "type": "Point", "coordinates": [ 55.9390834, 57.998939 ] } },
{ "type": "Feature", "properties": { "full_id": "n3110965318", "osm_id": "3110965318", "osm_type": "node", "government": "tax", "office": "government", "name": "Феодальная налоговая служба", "contact:website": null, "contact:vk": null, "contact:twitter": null, "contact:facebook": null }, "geometry": { "type": "Point", "coordinates": [ 56.2439411, 58.0165374 ] } }
]
}
